{"html_attributions":[],"next_page_token":"Aap_uEBb2IO2ZRdstrsZz2YcNQlNr6dZ-YjzJmBMfLU8yihhPFRFja_Y8ocRrsIteMVY_zDHAExNxcn4c7tXKEpTdBqC0v7YsqsdMBfVfcjPj-DnX5Xwi8SZdEH7b_Q-8vfzU1yOOAeuKOccKeI3XrG-KjYf8VSZLyOEwv4AM1nhWD_tZR7aQbDwQVqFFtnVw_LSxx1dHDGQoBDmhX3IOLYm71ZL5aLc0HjjVHPfT0hzI4BZQKsk5NTrDWi-tjcI4DD7P7yOwmzqwQy2GQ3m6-XhgGOBsrwoQpu8Zcnunjj4MjMBp7IC3tpboI2h04wBZc1GB_-XkQWCKUiVVqac8Iack0ca3QCY8KX6vZ8husGgGyCH3ifwzGXvv0___fVdrCKpotfxQF5ASaAmwvX57GYGLM9Yp5qwplcnwCXvsVJFryWI3vaVPOZBKcRVYOFr0zdygaavJA","results":[{"business_status":"OPERATIONAL","geometry":{"location":{"lat":-33.2714877,"lng":149.0890592},"viewport":{"northeast":{"lat":-33.27025907010728,"lng":149.0901994798927},"southwest":{"lat":-33.27295872989272,"lng":149.0874998201073}}},"icon":"https://maps.gstatic.com/mapfiles/place_api/icons/v1/png_71/school-71.png","icon_background_color":"#7B9EB0","icon_mask_base_uri":"https://maps.gstatic.com/mapfiles/place_api/icons/v2/school_pinlet","name":"Nurture One Albert Street Children's Centre","opening_hours":{"open_now":true},"photos":[{"height":2811,"html_attributions":["<a href=\"https://maps.google.com/maps/contrib/100016329992166117320\">Nurture One Albert Street Children&#39;s Centre</a>"],"photo_reference":"Aap_uEAg-baEDa6brRTYBzPepdMgPNRJexcsZb976JRijBqG2R1ZjaXdW6OuuzUfjCtM3YqEWeIiqa_k1139xk1duAJbcz1lmA4XpceTHFJvFcEvcRf896RHVqD0xmfxCcj4W1Dtk1FYMrJhBgtu7BUSLwoFwIxxLAgw9xK0XpPFj0_6MfBM","width":4233}],"place_id":"ChIJS1rSkMYsEGsRgcxe-s3cqiQ","plus_code":{"compound_code":"P3HQ+CJ Orange, New South Wales","global_code":"4RRFP3HQ+CJ"},"rating":5,"reference":"ChIJS1rSkMYsEGsRgcxe-s3cqiQ","scope":"GOOGLE","types":["school","point_of_interest","establishment"],"user_ratings_total":17,"vicinity":"32 Albert St, Orange"},{"business_status":"OPERATIONAL","geometry":{"location":{"lat":-33.2678298,"lng":149.0973815},"viewport":{"northeast":{"lat":-33.26657642010728,"lng":149.0987068798927},"southwest":{"lat":-33.26927607989272,"lng":149.0960072201072}}},"icon":"https://maps.gstatic.com/mapfiles/place_api/icons/v1/png_71/school-71.png","icon_background_color":"#7B9EB0","icon_mask_base_uri":"https://maps.gstatic.com/mapfiles/place_api/icons/v2/school_pinlet","name":"Nurture One Hill Street Children's Centre","opening_hours":{"open_now":true},"photos":[{"height":576,"html_attributions":["<a href=\"https://maps.google.com/maps/contrib/112233523810524156861\">Nurture One Hill Street Children&#39;s Centre</a>"],"photo_reference":"Aap_uEBmYNcHT9DRGPRDRtWseioNNZX9bgCMwNTeD8Du5MBQA8001KwOTF07Z0pa6Da9pq-zt7LeusnZIFjnSWSCl5SGuwGMhbppXPoxyr_RD_wlh8aU_ostG2mR_M8WQJqo6U_kQ6a8cKLnjKXYiCApOX90qqvTScQ9ppyy-ffp16jayATu","width":1024}],"place_id":"ChIJE6aKd7YsEGsRoUZeKqzR7es","plus_code":{"compound_code":"P3JW+VX Orange, New South Wales","global_code":"4RRFP3JW+VX"},"rating":5,"reference":"ChIJE6aKd7YsEGsRoUZeKqzR7es","scope":"GOOGLE","types":["school","point_of_interest","establishment"],"user_ratings_total":14,"vicinity":"182 Hill St, Orange"},{"business_status":"OPERATIONAL","geometry":{"location":{"lat":-33.2663491,"lng":149.0927861},"viewport":{"northeast":{"lat":-33.26501157010728,"lng":149.0942275798927},"southwest":{"lat":-33.26771122989273,"lng":149.0915279201073}}},"icon":"https://maps.gstatic.com/mapfiles/place_api/icons/v1/png_71/school-71.png","icon_background_color":"#7B9EB0","icon_mask_base_uri":"https://maps.gstatic.com/mapfiles/place_api/icons/v2/school_pinlet","name":"Courallie Park Child Development Centre","opening_hours":{"open_now":false},"place_id":"ChIJ_XL_J7gsEGsR0oHS8UixJTY","plus_code":{"compound_code":"P3MV+F4 Orange, New South Wales","global_code":"4RRFP3MV+F4"},"rating":4.7,"reference":"ChIJ_XL_J7gsEGsR0oHS8UixJTY","scope":"GOOGLE","types":["point_of_interest","establishment"],"user_ratings_total":3,"vicinity":"39 Kearneys Dr, Orange"},{"business_status":"OPERATIONAL","geometry":{"location":{"lat":-33.2672625,"lng":149.0818087},"viewport":{"northeast":{"lat":-33.26603317010727,"lng":149.0827138298927},"southwest":{"lat":-33.26873282989271,"lng":149.0800141701073}}},"icon":"https://maps.gstatic.com/mapfiles/place_api/icons/v1/png_71/school-71.png","icon_background_color":"#7B9EB0","icon_mask_base_uri":"https://maps.gstatic.com/mapfiles/place_api/icons/v2/school_pinlet","name":"Goodstart Early Learning Orange - Molong Road","opening_hours":{"open_now":true},"photos":[{"height":859,"html_attributions":["<a href=\"https://maps.google.com/maps/contrib/107752941160821234140\">Goodstart Early Learning Orange - Molong Road</a>"],"photo_reference":"Aap_uEDE_H-NabEfDIhh3ZqsPpTDn1AO88Cf0ZLHU2orDGRxQkKFWrbDG2WSR9GKMxdyVwH-1PPWMu0vvzYZAWxlSO3K0s9eIwmW_oZvu5neF5hv7agBMGtKUwTEwhcId4tWZqJ3AzWsa5tdmI6aSthIkUyJ5UD4zGuNApc_CQUV0SrSJ8hf","width":1288}],"place_id":"ChIJ-4R9geosEGsR2bgloBjJD3A","plus_code":{"compound_code":"P3MJ+3P Orange, New South Wales","global_code":"4RRFP3MJ+3P"},"rating":4.6,"reference":"ChIJ-4R9geosEGsR2bgloBjJD3A","scope":"GOOGLE","types":["school","point_of_interest","establishment"],"user_ratings_total":11,"vicinity":"90 Molong Rd, Orange"},{"business_status":"OPERATIONAL","geometry":{"location":{"lat":-33.2856507,"lng":149.0977934},"viewport":{"northeast":{"lat":-33.28421647010728,"lng":149.0991595798928},"southwest":{"lat":-33.28691612989272,"lng":149.0964599201073}}},"icon":"https://maps.gstatic.com/mapfiles/place_api/icons/v1/png_71/school-71.png","icon_background_color":"#7B9EB0","icon_mask_base_uri":"https://maps.gstatic.com/mapfiles/place_api/icons/v2/school_pinlet","name":"Goodstart Early Learning Orange - Kite Street","opening_hours":{"open_now":true},"photos":[{"height":1000,"html_attributions":["<a href=\"https://maps.google.com/maps/contrib/102317045071064665444\">Goodstart Early Learning Orange - Kite Street</a>"],"photo_reference":"Aap_uECacpw5GEthav3uPZIguMcTTfFE9qBloJB2itAdISQT4DMtku5JaI_fjrx3LrEgMbHNaRTgPvn5Fl2kW4b-xADSmKv6l0Zc-A7IB5H7r73VsEeLFBKR1yHLVvHoaJ3dh0ZYISaI1rAUDZVkHrfhgIXmoFua3ThhjOJvIdXdu_7dkHRX","width":1500}],"place_id":"ChIJt6gNu9YsEGsR7hhDwQtYR4M","plus_code":{"compound_code":"P37X+P4 Orange, New South Wales","global_code":"4RRFP37X+P4"},"rating":5,"reference":"ChIJt6gNu9YsEGsR7hhDwQtYR4M","scope":"GOOGLE","types":["school","point_of_interest","establishment"],"user_ratings_total":6,"vicinity":"86 Kite St, Orange"},{"business_status":"OPERATIONAL","geometry":{"location":{"lat":-33.2849314,"lng":149.0969496},"viewport":{"northeast":{"lat":-33.28349272010728,"lng":149.0984979798927},"southwest":{"lat":-33.28619237989272,"lng":149.0957983201072}}},"icon":"https://maps.gstatic.com/mapfiles/place_api/icons/v1/png_71/school-71.png","icon_background_color":"#7B9EB0","icon_mask_base_uri":"https://maps.gstatic.com/mapfiles/place_api/icons/v2/school_pinlet","name":"Orange Family Day Care","place_id":"ChIJQZQ9z9YsEGsRhdnEvWroKvo","plus_code":{"compound_code":"P38W+2Q Orange, New South Wales","global_code":"4RRFP38W+2Q"},"rating":0,"reference":"ChIJQZQ9z9YsEGsRhdnEvWroKvo","scope":"GOOGLE","types":["point_of_interest","establishment"],"user_ratings_total":0,"vicinity":"79-81 Kite St, Orange"},{"business_status":"OPERATIONAL","geometry":{"location":{"lat":-33.2776979,"lng":149.1089321},"viewport":{"northeast":{"lat":-33.27621837010728,"lng":149.1103099798927},"southwest":{"lat":-33.27891802989272,"lng":149.1076103201073}}},"icon":"https://maps.gstatic.com/mapfiles/place_api/icons/v1/png_71/school-71.png","icon_background_color":"#7B9EB0","icon_mask_base_uri":"https://maps.gstatic.com/mapfiles/place_api/icons/v2/school_pinlet","name":"Great Beginnings Orange","opening_hours":{"open_now":false},"photos":[{"height":576,"html_attributions":["<a href=\"https://maps.google.com/maps/contrib/112963333882740476863\">Create Imagine Learn Orange</a>"],"photo_reference":"Aap_uECW5YelF-tYhMh1WZn_z9WfzlOBXGVI7SNIJtaGNtAEqW3606Pqy93g191zzPp_EdVvEGx-ji-ObYaoO1GcPwUiyqtuyJEekRXwPkgHkOH2TRMHzFkwGTylqqlt7B7TsUajp0Gasf1A7m1Tp0q3qykjRMkqFN0gzsgVZo0XAeELDvTe","width":1024}],"place_id":"ChIJv2vkEDTTEWsR5cCqf6XbR7Y","plus_code":{"compound_code":"P4C5+WH Orange, New South Wales","global_code":"4RRFP4C5+WH"},"rating":4.7,"reference":"ChIJv2vkEDTTEWsR5cCqf6XbR7Y","scope":"GOOGLE","types":["school","point_of_interest","establishment"],"user_ratings_total":26,"vicinity":"174 Dalton St, Orange"},{"business_status":"OPERATIONAL","geometry":{"location":{"lat":-33.2658,"lng":149.074351},"viewport":{"northeast":{"lat":-33.26438912010729,"lng":149.0759283298927},"southwest":{"lat":-33.26708877989273,"lng":149.0732286701073}}},"icon":"https://maps.gstatic.com/mapfiles/place_api/icons/v1/png_71/school-71.png","icon_background_color":"#7B9EB0","icon_mask_base_uri":"https://maps.gstatic.com/mapfiles/place_api/icons/v2/school_pinlet","name":"Yarrawong Childrens Centre","opening_hours":{"open_now":false},"place_id":"ChIJ2TkXiuwsEGsRqVNmFhWIf3c","plus_code":{"compound_code":"P3MF+MP Orange, New South Wales","global_code":"4RRFP3MF+MP"},"rating":5,"reference":"ChIJ2TkXiuwsEGsRqVNmFhWIf3c","scope":"GOOGLE","types":["point_of_interest","establishment"],"user_ratings_total":1,"vicinity":"2 Yarrawong Pl, Orange"},{"business_status":"OPERATIONAL","geometry":{"location":{"lat":-33.2826113,"lng":149.117983},"viewport":{"northeast":{"lat":-33.28129287010727,"lng":149.1195612298927},"southwest":{"lat":-33.28399252989272,"lng":149.1168615701072}}},"icon":"https://maps.gstatic.com/mapfiles/place_api/icons/v1/png_71/school-71.png","icon_background_color":"#7B9EB0","icon_mask_base_uri":"https://maps.gstatic.com/mapfiles/place_api/icons/v2/school_pinlet","name":"Seymour Street Early Learning","opening_hours":{"open_now":false},"photos":[{"height":1530,"html_attributions":["<a href=\"https://maps.google.com/maps/contrib/103818248921380141833\">A Google User</a>"],"photo_reference":"Aap_uEALf3gTVVUF44OslShkq4K0hl1zKlUQxVg_urgb0DIlC7TBHUM3wr9WkAz1c5YToYSExdD6giYneVs2RIjrEXgEmxTC81VIEDUmx3YZsmW7zOXU2Dnm2lXkpZSuDSHMAD1UZlACDlhUXM3Uo19DsOfPPOwC_Hf0_w0i3of-CsGCIi-o","width":2040}],"place_id":"ChIJPV4qVzrTEWsRcxf9p93FxOI","plus_code":{"compound_code":"P489+X5 Orange, New South Wales","global_code":"4RRFP489+X5"},"rating":4.5,"reference":"ChIJPV4qVzrTEWsRcxf9p93FxOI","scope":"GOOGLE","types":["point_of_interest","establishment"],"user_ratings_total":16,"vicinity":"19-21 Seymour St, Orange"},{"business_status":"OPERATIONAL","geometry":{"location":{"lat":-33.2542512,"lng":149.1035765},"viewport":{"northeast":{"lat":-33.25303817010727,"lng":149.1048371298927},"southwest":{"lat":-33.25573782989272,"lng":149.1021374701072}}},"icon":"https://maps.gstatic.com/mapfiles/place_api/icons/v1/png_71/school-71.png","icon_background_color":"#7B9EB0","icon_mask_base_uri":"https://maps.gstatic.com/mapfiles/place_api/icons/v2/school_pinlet","name":"Waratah Early Learning Centre PTY LTD","opening_hours":{"open_now":true},"place_id":"ChIJ_VKrOqssEGsRx24IdKFMZQw","plus_code":{"compound_code":"P4W3+8C Orange, New South Wales","global_code":"4RRFP4W3+8C"},"rating":5,"reference":"ChIJ_VKrOqssEGsRx24IdKFMZQw","scope":"GOOGLE","types":["point_of_interest","establishment"],"user_ratings_total":1,"vicinity":"52-54 Farrell Rd, Orange"},{"business_status":"OPERATIONAL","geometry":{"location":{"lat":-33.2739376,"lng":149.1165943},"viewport":{"northeast":{"lat":-33.27264952010728,"lng":149.1180034798928},"southwest":{"lat":-33.27534917989272,"lng":149.1153038201073}}},"icon":"https://maps.gstatic.com/mapfiles/place_api/icons/v1/png_71/school-71.png","icon_background_color":"#7B9EB0","icon_mask_base_uri":"https://maps.gstatic.com/mapfiles/place_api/icons/v2/school_pinlet","name":"Spring Street Childrens Centre","opening_hours":{"open_now":false},"place_id":"ChIJHQlQuUfTEWsRjQXRQJbHkSo","plus_code":{"compound_code":"P4G8+CJ Orange, New South Wales","global_code":"4RRFP4G8+CJ"},"rating":4,"reference":"ChIJHQlQuUfTEWsRjQXRQJbHkSo","scope":"GOOGLE","types":["point_of_interest","establishment"],"user_ratings_total":4,"vicinity":"143 Spring St, Orange"},{"business_status":"OPERATIONAL","geometry":{"location":{"lat":-33.2619779,"lng":149.0764205},"viewport":{"northeast":{"lat":-33.26059317010728,"lng":149.0775189298927},"southwest":{"lat":-33.26329282989272,"lng":149.0748192701073}}},"icon":"https://maps.gstatic.com/mapfiles/place_api/icons/v1/png_71/school-71.png","icon_background_color":"#7B9EB0","icon_mask_base_uri":"https://maps.gstatic.com/mapfiles/place_api/icons/v2/school_pinlet","name":"Imagine Childcare & Preschool Orange","opening_hours":{"open_now":false},"photos":[{"height":800,"html_attributions":["<a href=\"https://maps.google.com/maps/contrib/113092926277299650411\">A Google User</a>"],"photo_reference":"Aap_uEBETV-Kdmg6O_ZXc4sI6sZiiQHnmwK_lkzngXuQn1vLGgdJMyUk0f5OnwCLq4C6ToLXgv-YW69XNUJ4UJxqfK5c1tp-kgRRvtHKMfj77i2XlRx49PUMENqweOR-ZWe3tFPLmDEIIjFu70hTF4pBkSFK00f0gkOWANNSgll2c5JuJjRx","width":1200}],"place_id":"ChIJky06V_stEGsRN_dQe_ySucQ","plus_code":{"compound_code":"P3QG+8G Orange, New South Wales","global_code":"4RRFP3QG+8G"},"rating":0,"reference":"ChIJky06V_stEGsRN_dQe_ySucQ","scope":"GOOGLE","types":["point_of_interest","establishment"],"user_ratings_total":0,"vicinity":"30/40 Turner Cres, Orange"},{"business_status":"OPERATIONAL","geometry":{"location":{"lat":-33.2501085,"lng":149.1018483},"viewport":{"northeast":{"lat":-33.24875902010728,"lng":149.1031604798927},"southwest":{"lat":-33.25145867989272,"lng":149.1004608201073}}},"icon":"https://maps.gstatic.com/mapfiles/place_api/icons/v1/png_71/school-71.png","icon_background_color":"#7B9EB0","icon_mask_base_uri":"https://maps.gstatic.com/mapfiles/place_api/icons/v2/school_pinlet","name":"Kiddie Academy Orange","place_id":"ChIJU_GaSnorEGsRxOfqRa1w0_U","plus_code":{"compound_code":"P4X2+XP Orange, New South Wales","global_code":"4RRFP4X2+XP"},"rating":0,"reference":"ChIJU_GaSnorEGsRxOfqRa1w0_U","scope":"GOOGLE","types":["point_of_interest","establishment"],"user_ratings_total":0,"vicinity":"32 Telopea Way, Orange"},{"business_status":"OPERATIONAL","geometry":{"location":{"lat":-33.2876434,"lng":149.1049892},"viewport":{"northeast":{"lat":-33.28625822010727,"lng":149.1060967798927},"southwest":{"lat":-33.28895787989272,"lng":149.1033971201072}}},"icon":"https://maps.gstatic.com/mapfiles/place_api/icons/v1/png_71/school-71.png","icon_background_color":"#7B9EB0","icon_mask_base_uri":"https://maps.gstatic.com/mapfiles/place_api/icons/v2/school_pinlet","name":"Happy Feet Childcare Centre","place_id":"ChIJVVXRRCvTEWsRUQUnm2bvOUs","plus_code":{"compound_code":"P463+WX Orange, New South Wales","global_code":"4RRFP463+WX"},"rating":0,"reference":"ChIJVVXRRCvTEWsRUQUnm2bvOUs","scope":"GOOGLE","types":["point_of_interest","establishment"],"user_ratings_total":0,"vicinity":"98 Endsleigh Ave, Panuara"},{"business_status":"OPERATIONAL","geometry":{"location":{"lat":-33.2751992,"lng":149.096355},"viewport":{"northeast":{"lat":-33.27394452010729,"lng":149.0976870298927},"southwest":{"lat":-33.27664417989273,"lng":149.0949873701073}}},"icon":"https://maps.gstatic.com/mapfiles/place_api/icons/v1/png_71/school-71.png","icon_background_color":"#7B9EB0","icon_mask_base_uri":"https://maps.gstatic.com/mapfiles/place_api/icons/v2/school_pinlet","name":"The Willows Early Learning Centre","opening_hours":{"open_now":false},"place_id":"ChIJaR-0z84sEGsRiHc-A2m1puE","plus_code":{"compound_code":"P3FW+XH Orange, New South Wales","global_code":"4RRFP3FW+XH"},"rating":0,"reference":"ChIJaR-0z84sEGsRiHc-A2m1puE","scope":"GOOGLE","types":["school","point_of_interest","establishment"],"user_ratings_total":0,"vicinity":"55 Dalton St, Orange"},{"business_status":"OPERATIONAL","geometry":{"location":{"lat":-33.2849745,"lng":149.0974811},"viewport":{"northeast":{"lat":-33.28362887010728,"lng":149.0988658298928},"southwest":{"lat":-33.28632852989273,"lng":149.0961661701073}}},"icon":"https://maps.gstatic.com/mapfiles/place_api/icons/v1/png_71/school-71.png","icon_background_color":"#7B9EB0","icon_mask_base_uri":"https://maps.gstatic.com/mapfiles/place_api/icons/v2/school_pinlet","name":"Orange Occasional Care Cottage","opening_hours":{"open_now":false},"place_id":"ChIJIz1As9YsEGsRwHseq266k1s","plus_code":{"compound_code":"P38W+2X Orange, New South Wales","global_code":"4RRFP38W+2X"},"rating":0,"reference":"ChIJIz1As9YsEGsRwHseq266k1s","scope":"GOOGLE","types":["point_of_interest","establishment"],"user_ratings_total":0,"vicinity":"85 Kite St, Orange"},{"business_status":"OPERATIONAL","geometry":{"location":{"lat":-33.2918886,"lng":149.1127141},"viewport":{"northeast":{"lat":-33.29052562010728,"lng":149.1140458798927},"southwest":{"lat":-33.29322527989272,"lng":149.1113462201072}}},"icon":"https://maps.gstatic.com/mapfiles/place_api/icons/v1/png_71/school-71.png","icon_background_color":"#7B9EB0","icon_mask_base_uri":"https://maps.gstatic.com/mapfiles/place_api/icons/v2/school_pinlet","name":"Gowrie NSW Kinross Wolaroi Outschool School Hours Care","opening_hours":{"open_now":true},"place_id":"ChIJ74y1bFvTEWsRwPoBxSsj_JU","plus_code":{"compound_code":"P457+63 Orange, New South Wales","global_code":"4RRFP457+63"},"rating":0,"reference":"ChIJ74y1bFvTEWsRwPoBxSsj_JU","scope":"GOOGLE","types":["point_of_interest","establishment"],"user_ratings_total":0,"vicinity":"59-67 Bathurst Rd, Orange"},{"business_status":"OPERATIONAL","geometry":{"location":{"lat":-33.2766301,"lng":149.1010458},"viewport":{"northeast":{"lat":-33.27510277010728,"lng":149.1024297298927},"southwest":{"lat":-33.27780242989272,"lng":149.0997300701073}}},"icon":"https://maps.gstatic.com/mapfiles/place_api/icons/v1/png_71/generic_business-71.png","icon_background_color":"#7B9EB0","icon_mask_base_uri":"https://maps.gstatic.com/mapfiles/place_api/icons/v2/generic_pinlet","name":"Play Learn LiveBetter Preschool","opening_hours":{"open_now":false},"place_id":"ChIJp8277G0tEGsRh0UKEQ3cVoU","plus_code":{"compound_code":"P4F2+8C Orange, New South Wales","global_code":"4RRFP4F2+8C"},"rating":5,"reference":"ChIJp8277G0tEGsRh0UKEQ3cVoU","scope":"GOOGLE","types":["school","point_of_interest","establishment"],"user_ratings_total":1,"vicinity":"88 Dalton St, Orange"},{"business_status":"OPERATIONAL","geometry":{"location":{"lat":-33.2507218,"lng":149.0940629},"viewport":{"northeast":{"lat":-33.24935752010728,"lng":149.0954581298928},"southwest":{"lat":-33.25205717989272,"lng":149.0927584701073}}},"icon":"https://maps.gstatic.com/mapfiles/place_api/icons/v1/png_71/school-71.png","icon_background_color":"#7B9EB0","icon_mask_base_uri":"https://maps.gstatic.com/mapfiles/place_api/icons/v2/school_pinlet","name":"Orange Early Learning Centre","opening_hours":{"open_now":false},"place_id":"ChIJS9fokKgsEGsRjJQy0fV5zwA","plus_code":{"compound_code":"P3XV+PH Orange, New South Wales","global_code":"4RRFP3XV+PH"},"rating":5,"reference":"ChIJS9fokKgsEGsRjJQy0fV5zwA","scope":"GOOGLE","types":["point_of_interest","establishment"],"user_ratings_total":3,"vicinity":"19 William Maker Dr, Orange"},{"business_status":"OPERATIONAL","geometry":{"location":{"lat":-33.29721370000001,"lng":149.1123202},"viewport":{"northeast":{"lat":-33.29580902010728,"lng":149.1132712298927},"southwest":{"lat":-33.29850867989272,"lng":149.1105715701073}}},"icon":"https://maps.gstatic.com/mapfiles/place_api/icons/v1/png_71/generic_business-71.png","icon_background_color":"#7B9EB0","icon_mask_base_uri":"https://maps.gstatic.com/mapfiles/place_api/icons/v2/generic_pinlet","name":"LiveBetter Glenroi Preschool","opening_hours":{"open_now":false},"photos":[{"height":333,"html_attributions":["<a href=\"https://maps.google.com/maps/contrib/101785997762356660942\">A Google User</a>"],"photo_reference":"Aap_uEDSzKrdQI3YThEWN6MH-41iFa3OkzBzJidy6uDHUQrXbiGIaZnD2fj2ThGEjnvQctpFZ38YiZ7fTQnR1IorspqccPKgZHJsRnFqLz8Nyb4PcN2-C6ILRYlI1OG1-y0DOoEdgNzrwYDu5iFxBIImyD3tNQCTFjLRN2dPj3r1eco1LbO5","width":1071}],"place_id":"ChIJ52Y0-9bSEWsRjoa5y_t8PFg","plus_code":{"compound_code":"P436+4W Orange, New South Wales","global_code":"4RRFP436+4W"},"rating":0,"reference":"ChIJ52Y0-9bSEWsRjoa5y_t8PFg","scope":"GOOGLE","types":["school","point_of_interest","establishment"],"user_ratings_total":0,"vicinity":"40/62 Maxwell Ave, Orange"}],"status":"OK"}